<?xml version="1.0" encoding="UTF-8"?>
<kml xmlns="http://www.opengis.net/kml/2.2" xmlns:gx="http://www.google.com/kml/ext/2.2">
  <Document>
    <Schema id="schema0" name="schema0">
      <SimpleField name="Description" type="string"/>
      <SimpleField name="pdfmaps_photos" type="string">
        <displayName>Photos</displayName>
      </SimpleField>
      <SimpleField name="Photo Name" type="string"/>
      <SimpleField name="Photo Date" type="string"/>
      <SimpleField name="Photo Timestamp" type="string"/>
      <SimpleField name="Photo Location" type="string"/>
      <SimpleField name="Photo Altitude" type="string"/>
      <SimpleField name="Photo Orientation" type="string"/>
      <SimpleField name="Device Type" type="string"/>
    </Schema>
    <Folder>
      <styleUrl>#style0</styleUrl>
      <name>Lapisan 1</name>
      <ExtendedData>
        <SchemaData schemaUrl="#schema0"/>
      </ExtendedData>
      <Placemark>
        <name>Asep</name>
        <TimeStamp>
          <when>2024-10-19T10:24:30+07:00</when>
        </TimeStamp>
        <styleUrl>#style1</styleUrl>
        <Point>
          <coordinates>
            109.58518225,-7.16790668,591.102844238281
          </coordinates>
        </Point>
      </Placemark>
      <Placemark>
        <name>Avan</name>
        <TimeStamp>
          <when>2024-10-19T12:51:55+07:00</when>
        </TimeStamp>
        <styleUrl>#style1</styleUrl>
        <Point>
          <coordinates>
            109.58486994,-7.16828387999999,583.502990722656
          </coordinates>
        </Point>
      </Placemark>
      <Placemark>
        <name>Avandi</name>
        <TimeStamp>
          <when>2024-10-19T12:29:48+07:00</when>
        </TimeStamp>
        <styleUrl>#style1</styleUrl>
        <Point>
          <coordinates>
            109.58511887,-7.16840513999999,584.280029296875
          </coordinates>
        </Point>
      </Placemark>
      <Placemark>
        <name>Baihaki</name>
        <TimeStamp>
          <when>2024-10-19T12:46:17+07:00</when>
        </TimeStamp>
        <styleUrl>#style1</styleUrl>
        <Point>
          <coordinates>
            109.58501883,-7.16843884000001,0
          </coordinates>
        </Point>
      </Placemark>
      <Placemark>
        <name>Bak Canggal Putih Dari Siladrang 2</name>
        <TimeStamp>
          <when>2024-10-07T12:05:40+07:00</when>
        </TimeStamp>
        <styleUrl>#style2</styleUrl>
        <Point>
          <coordinates>
            109.59238997,-7.16521753,674.150451660156
          </coordinates>
        </Point>
      </Placemark>
      <Placemark>
        <name>Bak Dari Siladrang 3</name>
        <TimeStamp>
          <when>2024-10-07T11:49:22+07:00</when>
        </TimeStamp>
        <styleUrl>#style2</styleUrl>
        <Point>
          <coordinates>
            109.5935383,-7.16189403,726.921569824219
          </coordinates>
        </Point>
      </Placemark>
      <Placemark>
        <name>Bak Kencen</name>
        <TimeStamp>
          <when>2024-10-07T12:24:24+07:00</when>
        </TimeStamp>
        <styleUrl>#style2</styleUrl>
        <Point>
          <coordinates>
            109.59070445,-7.16917821,630.915222167969
          </coordinates>
        </Point>
      </Placemark>
      <Placemark>
        <name>Bak Sipendok</name>
        <TimeStamp>
          <when>2024-10-07T09:50:01+07:00</when>
        </TimeStamp>
        <styleUrl>#style2</styleUrl>
        <Point>
          <coordinates>
            109.586557863472,-7.16448994793749,611.726318359375
          </coordinates>
        </Point>
      </Placemark>
      <Placemark>
        <name>Bambang</name>
        <TimeStamp>
          <when>2024-10-19T13:48:58+07:00</when>
        </TimeStamp>
        <styleUrl>#style1</styleUrl>
        <Point>
          <coordinates>
            109.58459411,-7.16842616,579.975158691406
          </coordinates>
        </Point>
      </Placemark>
      <Placemark>
        <name>Buoh</name>
        <TimeStamp>
          <when>2024-10-19T11:12:39+07:00</when>
        </TimeStamp>
        <styleUrl>#style1</styleUrl>
        <Point>
          <coordinates>
            109.58596326,-7.16814381,594.814636230469
          </coordinates>
        </Point>
      </Placemark>
      <Placemark>
        <name>Haji Lukman</name>
        <TimeStamp>
          <when>2024-10-19T13:49:47+07:00</when>
        </TimeStamp>
        <styleUrl>#style1</styleUrl>
        <Point>
          <coordinates>
            109.58451216,-7.16838865000001,578.926574707031
          </coordinates>
        </Point>
      </Placemark>
      <Placemark>
        <name>Ibnu Mahtum</name>
        <TimeStamp>
          <when>2024-10-19T10:30:37+07:00</when>
        </TimeStamp>
        <styleUrl>#style1</styleUrl>
        <Point>
          <coordinates>
            109.58532957,-7.16807917,590.118469238281
          </coordinates>
        </Point>
      </Placemark>
      <Placemark>
        <name>Ilman</name>
        <TimeStamp>
          <when>2024-10-19T13:07:52+07:00</when>
        </TimeStamp>
        <styleUrl>#style1</styleUrl>
        <Point>
          <coordinates>
            109.58479221,-7.16820701,583.753601074219
          </coordinates>
        </Point>
      </Placemark>
      <Placemark>
        <name>Jazi</name>
        <TimeStamp>
          <when>2024-10-19T13:15:09+07:00</when>
        </TimeStamp>
        <styleUrl>#style1</styleUrl>
        <Point>
          <coordinates>
            109.58461001,-7.16804304000001,584.200744628906
          </coordinates>
        </Point>
      </Placemark>
      <Placemark>
        <name>Kamiri</name>
        <TimeStamp>
          <when>2024-10-19T11:05:20+07:00</when>
        </TimeStamp>
        <styleUrl>#style1</styleUrl>
        <Point>
          <coordinates>
            109.58627282,-7.16795782,603.1943359375
          </coordinates>
        </Point>
      </Placemark>
      <Placemark>
        <name>Khulal</name>
        <TimeStamp>
          <when>2024-10-19T13:41:30+07:00</when>
        </TimeStamp>
        <styleUrl>#style1</styleUrl>
        <Point>
          <coordinates>
            109.58466504,-7.16826371000003,582.031677246094
          </coordinates>
        </Point>
      </Placemark>
      <Placemark>
        <name>Kihan</name>
        <TimeStamp>
          <when>2024-10-19T13:46:38+07:00</when>
        </TimeStamp>
        <styleUrl>#style1</styleUrl>
        <Point>
          <coordinates>
            109.58456858,-7.16837242000001,579.724670410156
          </coordinates>
        </Point>
      </Placemark>
      <Placemark>
        <name>Kihan 2</name>
        <TimeStamp>
          <when>2024-10-19T13:57:07+07:00</when>
        </TimeStamp>
        <styleUrl>#style1</styleUrl>
        <Point>
          <coordinates>
            109.58458255,-7.16867234,579.933654785156
          </coordinates>
        </Point>
      </Placemark>
      <Placemark>
        <name>Kosim</name>
        <TimeStamp>
          <when>2024-10-19T10:10:31+07:00</when>
        </TimeStamp>
        <styleUrl>#style1</styleUrl>
        <Point>
          <coordinates>
            109.58532814,-7.16782302000001,596.173767089844
          </coordinates>
        </Point>
      </Placemark>
      <Placemark>
        <name>Kurin</name>
        <TimeStamp>
          <when>2024-10-19T12:39:21+07:00</when>
        </TimeStamp>
        <styleUrl>#style1</styleUrl>
        <Point>
          <coordinates>
            109.5850076,-7.16835944000001,0
          </coordinates>
        </Point>
      </Placemark>
      <Placemark>
        <name>Kusnadi</name>
        <TimeStamp>
          <when>2024-10-19T10:41:07+07:00</when>
        </TimeStamp>
        <styleUrl>#style1</styleUrl>
        <Point>
          <coordinates>
            109.58500276,-7.16777706000001,588.076904296875
          </coordinates>
        </Point>
      </Placemark>
      <Placemark>
        <name>Kusnadi</name>
        <TimeStamp>
          <when>2024-10-19T13:58:30+07:00</when>
        </TimeStamp>
        <styleUrl>#style1</styleUrl>
        <Point>
          <coordinates>
            109.58479058,-7.16870319999999,581.9052734375
          </coordinates>
        </Point>
      </Placemark>
      <Placemark>
        <name>Kyai Sulaiman</name>
        <TimeStamp>
          <when>2024-10-19T12:33:09+07:00</when>
        </TimeStamp>
        <styleUrl>#style1</styleUrl>
        <Point>
          <coordinates>
            109.5850569,-7.16848657,583.766174316406
          </coordinates>
        </Point>
      </Placemark>
      <Placemark>
        <name>Latna Fadlilah</name>
        <TimeStamp>
          <when>2024-10-19T13:18:16+07:00</when>
        </TimeStamp>
        <styleUrl>#style1</styleUrl>
        <Point>
          <coordinates>
            109.58461317,-7.1680278,584.236267089844
          </coordinates>
        </Point>
      </Placemark>
      <Placemark>
        <name>Linda</name>
        <TimeStamp>
          <when>2024-10-19T13:04:16+07:00</when>
        </TimeStamp>
        <styleUrl>#style1</styleUrl>
        <Point>
          <coordinates>
            109.584843956271,-7.16857684547431,581.999816894531
          </coordinates>
        </Point>
      </Placemark>
      <Placemark>
        <name>M.Ikrom</name>
        <TimeStamp>
          <when>2024-10-19T11:30:07+07:00</when>
        </TimeStamp>
        <styleUrl>#style1</styleUrl>
        <Point>
          <coordinates>
            109.58547551,-7.16822244,588.703918457031
          </coordinates>
        </Point>
      </Placemark>
      <Placemark>
        <name>Mamun</name>
        <TimeStamp>
          <when>2024-10-19T11:12:06+07:00</when>
        </TimeStamp>
        <styleUrl>#style1</styleUrl>
        <Point>
          <coordinates>
            109.58600302,-7.16818137000003,594.567932128906
          </coordinates>
        </Point>
      </Placemark>
      <Placemark>
        <name>Marati</name>
        <TimeStamp>
          <when>2024-10-19T13:47:33+07:00</when>
        </TimeStamp>
        <styleUrl>#style1</styleUrl>
        <Point>
          <coordinates>
            109.58461396,-7.16842352,580.242919921875
          </coordinates>
        </Point>
      </Placemark>
      <Placemark>
        <name>Marhatin</name>
        <TimeStamp>
          <when>2024-10-19T12:57:34+07:00</when>
        </TimeStamp>
        <styleUrl>#style1</styleUrl>
        <Point>
          <coordinates>
            109.58483549,-7.16853350000003,582.094909667969
          </coordinates>
        </Point>
      </Placemark>
      <Placemark>
        <name>Maroh</name>
        <TimeStamp>
          <when>2024-10-19T11:35:35+07:00</when>
        </TimeStamp>
        <styleUrl>#style1</styleUrl>
        <Point>
          <coordinates>
            109.58524569,-7.16831371,585.213195800781
          </coordinates>
        </Point>
      </Placemark>
      <Placemark>
        <name>Marzuk</name>
        <TimeStamp>
          <when>2024-10-19T12:38:02+07:00</when>
        </TimeStamp>
        <styleUrl>#style1</styleUrl>
        <Point>
          <coordinates>
            109.58503333,-7.16834883999999,0
          </coordinates>
        </Point>
      </Placemark>
      <Placemark>
        <name>Mba Mis</name>
        <TimeStamp>
          <when>2024-10-19T13:43:06+07:00</when>
        </TimeStamp>
        <styleUrl>#style1</styleUrl>
        <Point>
          <coordinates>
            109.58464999,-7.16820592000001,582.574462890625
          </coordinates>
        </Point>
      </Placemark>
      <Placemark>
        <name>Megono Kosim</name>
        <TimeStamp>
          <when>2024-10-19T13:03:27+07:00</when>
        </TimeStamp>
        <styleUrl>#style1</styleUrl>
        <Point>
          <coordinates>
            109.58484836,-7.16856096000002,0
          </coordinates>
        </Point>
      </Placemark>
      <Placemark>
        <name>Muhkholifin</name>
        <TimeStamp>
          <when>2024-10-19T13:21:00+07:00</when>
        </TimeStamp>
        <styleUrl>#style1</styleUrl>
        <Point>
          <coordinates>
            109.58468058,-7.16801946000003,584.791137695312
          </coordinates>
        </Point>
      </Placemark>
      <Placemark>
        <name>Muhrodin</name>
        <TimeStamp>
          <when>2024-10-19T10:39:04+07:00</when>
        </TimeStamp>
        <styleUrl>#style1</styleUrl>
        <Point>
          <coordinates>
            109.58513231,-7.16765520000002,591.369262695312
          </coordinates>
        </Point>
      </Placemark>
      <Placemark>
        <name>Mujib</name>
        <TimeStamp>
          <when>2024-10-19T10:08:11+07:00</when>
        </TimeStamp>
        <styleUrl>#style1</styleUrl>
        <Point>
          <coordinates>
            109.58550423,-7.16785645000001,599.083740234375
          </coordinates>
        </Point>
      </Placemark>
      <Placemark>
        <name>Munah</name>
        <TimeStamp>
          <when>2024-10-19T12:55:09+07:00</when>
        </TimeStamp>
        <styleUrl>#style1</styleUrl>
        <Point>
          <coordinates>
            109.58483937,-7.16824320000001,0
          </coordinates>
        </Point>
      </Placemark>
      <Placemark>
        <name>Munasifah</name>
        <TimeStamp>
          <when>2024-10-19T11:34:12+07:00</when>
        </TimeStamp>
        <styleUrl>#style1</styleUrl>
        <Point>
          <coordinates>
            109.58526193,-7.16833153,584.974304199219
          </coordinates>
        </Point>
      </Placemark>
      <Placemark>
        <name>Munawaroh</name>
        <TimeStamp>
          <when>2024-10-19T10:35:59+07:00</when>
        </TimeStamp>
        <styleUrl>#style1</styleUrl>
        <Point>
          <coordinates>
            109.58510688,-7.16786782,589.930969238281
          </coordinates>
        </Point>
      </Placemark>
      <Placemark>
        <name>Muslihah</name>
        <TimeStamp>
          <when>2024-10-19T10:23:01+07:00</when>
        </TimeStamp>
        <styleUrl>#style1</styleUrl>
        <Point>
          <coordinates>
            109.58522283,-7.16787214000001,592.648071289062
          </coordinates>
        </Point>
      </Placemark>
      <Placemark>
        <name>Nafis</name>
        <TimeStamp>
          <when>2024-10-19T13:13:51+07:00</when>
        </TimeStamp>
        <styleUrl>#style1</styleUrl>
        <Point>
          <coordinates>
            109.58462754,-7.16812692,583.372436523438
          </coordinates>
        </Point>
      </Placemark>
      <Placemark>
        <name>Nur Kholis</name>
        <TimeStamp>
          <when>2024-10-19T13:26:16+07:00</when>
        </TimeStamp>
        <styleUrl>#style1</styleUrl>
        <Point>
          <coordinates>
            109.58451018,-7.16800769,583.382507324219
          </coordinates>
        </Point>
      </Placemark>
      <Placemark>
        <name>Pertigaan Air Pasar Dan Dukuh</name>
        <TimeStamp>
          <when>2024-10-07T09:39:39+07:00</when>
        </TimeStamp>
        <styleUrl>#style2</styleUrl>
        <Point>
          <coordinates>
            109.58324404,-7.16484970000004,582.971130371094
          </coordinates>
        </Point>
      </Placemark>
      <Placemark>
        <name><![CDATA[Rofi'i]]></name>
        <TimeStamp>
          <when>2024-10-19T13:39:30+07:00</when>
        </TimeStamp>
        <styleUrl>#style1</styleUrl>
        <Point>
          <coordinates>
            109.58469107,-7.16822092,582.856262207031
          </coordinates>
        </Point>
      </Placemark>
      <Placemark>
        <name>Rozak</name>
        <TimeStamp>
          <when>2024-10-19T11:28:03+07:00</when>
        </TimeStamp>
        <styleUrl>#style1</styleUrl>
        <Point>
          <coordinates>
            109.58582401,-7.16819373,592.429016113281
          </coordinates>
        </Point>
      </Placemark>
      <Placemark>
        <name>Rumah Warga</name>
        <TimeStamp>
          <when>2024-10-07T10:10:43+07:00</when>
        </TimeStamp>
        <styleUrl>#style2</styleUrl>
        <Point>
          <coordinates>
            109.58141007,-7.16552601000003,568.897033691406
          </coordinates>
        </Point>
      </Placemark>
      <Placemark>
        <name>Rumah Warga Dukuh</name>
        <TimeStamp>
          <when>2024-10-08T10:47:43+07:00</when>
        </TimeStamp>
        <styleUrl>#style1</styleUrl>
        <Point>
          <coordinates>
            109.58164051564,-7.16681356008464,574.087097167969
          </coordinates>
        </Point>
      </Placemark>
      <Placemark>
        <name>Safii</name>
        <TimeStamp>
          <when>2024-10-19T13:13:19+07:00</when>
        </TimeStamp>
        <styleUrl>#style1</styleUrl>
        <Point>
          <coordinates>
            109.58465913,-7.16813586000002,583.547119140625
          </coordinates>
        </Point>
      </Placemark>
      <Placemark>
        <name>Siladrang 2</name>
        <TimeStamp>
          <when>2024-10-07T11:31:05+07:00</when>
        </TimeStamp>
        <styleUrl>#style2</styleUrl>
        <Point>
          <coordinates>
            109.59533051808,-7.16123421848638,754.759460449219
          </coordinates>
        </Point>
      </Placemark>
      <Placemark>
        <name>Siladrang 3</name>
        <TimeStamp>
          <when>2024-10-07T11:44:54+07:00</when>
        </TimeStamp>
        <styleUrl>#style2</styleUrl>
        <Point>
          <coordinates>
            109.594427185841,-7.16184283371994,737.611450195312
          </coordinates>
        </Point>
      </Placemark>
      <Placemark>
        <name>Suhron</name>
        <TimeStamp>
          <when>2024-10-19T12:37:32+07:00</when>
        </TimeStamp>
        <styleUrl>#style1</styleUrl>
        <Point>
          <coordinates>
            109.58502601,-7.16831056,584.280639648438
          </coordinates>
        </Point>
      </Placemark>
      <Placemark>
        <name>Sumber Siladrang 1</name>
        <TimeStamp>
          <when>2024-10-07T11:03:02+07:00</when>
        </TimeStamp>
        <styleUrl>#style2</styleUrl>
        <Point>
          <coordinates>
            109.60090509,-7.16080782,864.93115234375
          </coordinates>
        </Point>
      </Placemark>
      <Placemark>
        <name>Suprihatin</name>
        <TimeStamp>
          <when>2024-10-19T12:35:35+07:00</when>
        </TimeStamp>
        <styleUrl>#style1</styleUrl>
        <Point>
          <coordinates>
            109.58499765,-7.16818063,585.087219238281
          </coordinates>
        </Point>
      </Placemark>
      <Placemark>
        <name>Tairah</name>
        <TimeStamp>
          <when>2024-10-19T13:11:38+07:00</when>
        </TimeStamp>
        <styleUrl>#style1</styleUrl>
        <Point>
          <coordinates>
            109.58483862,-7.16802819,585.558837890625
          </coordinates>
        </Point>
      </Placemark>
      <Placemark>
        <name>Tanda tempat 1</name>
        <TimeStamp>
          <when>2024-10-19T12:51:05+07:00</when>
        </TimeStamp>
        <styleUrl>#style3</styleUrl>
        <Point>
          <coordinates>
            109.58501854,-7.16822798,584.901245117188
          </coordinates>
        </Point>
      </Placemark>
      <Placemark>
        <name>Tarmuji</name>
        <TimeStamp>
          <when>2024-10-19T11:40:12+07:00</when>
        </TimeStamp>
        <styleUrl>#style1</styleUrl>
        <Point>
          <coordinates>
            109.58521793,-7.16831422000001,585.084106445312
          </coordinates>
        </Point>
      </Placemark>
      <Placemark>
        <name>Tarwiyah</name>
        <TimeStamp>
          <when>2024-10-19T11:26:18+07:00</when>
        </TimeStamp>
        <styleUrl>#style1</styleUrl>
        <Point>
          <coordinates>
            109.58582439,-7.16821275999999,592.087707519531
          </coordinates>
        </Point>
      </Placemark>
      <Placemark>
        <name>Tidak Berpenghuni</name>
        <TimeStamp>
          <when>2024-10-19T13:10:55+07:00</when>
        </TimeStamp>
        <styleUrl>#style1</styleUrl>
        <Point>
          <coordinates>
            109.58481117,-7.16811891,584.709045410156
          </coordinates>
        </Point>
      </Placemark>
      <Placemark>
        <name>Umaroh</name>
        <TimeStamp>
          <when>2024-10-19T13:19:24+07:00</when>
        </TimeStamp>
        <styleUrl>#style1</styleUrl>
        <Point>
          <coordinates>
            109.584613594605,-7.16801980476304,0
          </coordinates>
        </Point>
      </Placemark>
      <Placemark>
        <name>Untung</name>
        <TimeStamp>
          <when>2024-10-19T12:29:05+07:00</when>
        </TimeStamp>
        <styleUrl>#style1</styleUrl>
        <Point>
          <coordinates>
            109.58506746,-7.16840302,584.052917480469
          </coordinates>
        </Point>
      </Placemark>
      <Placemark>
        <name>Ust Roni</name>
        <TimeStamp>
          <when>2024-10-19T10:07:08+07:00</when>
        </TimeStamp>
        <styleUrl>#style1</styleUrl>
        <Point>
          <coordinates>
            109.58544674,-7.16778896000002,599.918395996094
          </coordinates>
        </Point>
      </Placemark>
      <Placemark>
        <name>Ustad Adib</name>
        <TimeStamp>
          <when>2024-10-19T10:43:05+07:00</when>
        </TimeStamp>
        <styleUrl>#style1</styleUrl>
        <Point>
          <coordinates>
            109.58500929,-7.16776778000003,588.231567382812
          </coordinates>
        </Point>
      </Placemark>
      <Placemark>
        <name>Wahyono</name>
        <TimeStamp>
          <when>2024-10-19T10:43:50+07:00</when>
        </TimeStamp>
        <styleUrl>#style1</styleUrl>
        <Point>
          <coordinates>
            109.58492416,-7.16785586,586.968505859375
          </coordinates>
        </Point>
      </Placemark>
      <Placemark>
        <name>Wawan</name>
        <TimeStamp>
          <when>2024-10-19T11:07:46+07:00</when>
        </TimeStamp>
        <styleUrl>#style1</styleUrl>
        <Point>
          <coordinates>
            109.5862255,-7.16807286999999,600.159118652344
          </coordinates>
        </Point>
      </Placemark>
      <Placemark>
        <name>Yuni Widianto</name>
        <TimeStamp>
          <when>2024-10-19T11:20:22+07:00</when>
        </TimeStamp>
        <styleUrl>#style1</styleUrl>
        <Point>
          <coordinates>
            109.58584399,-7.16817625000001,592.942565917969
          </coordinates>
        </Point>
      </Placemark>
    </Folder>
    <Style id="style0">
      <IconStyle>
        <color>802f80ff</color>
        <Icon>
          <href>http://download.avenza.com/images/pdfmaps_icons/red_pin.png</href>
        </Icon>
        <hotSpot x="0.5" xunits="fraction" y="0.5" yunits="fraction"/>
      </IconStyle>
      <LineStyle>
        <color>ff2f80ff</color>
        <width>4</width>
      </LineStyle>
      <PolyStyle>
        <color>802f80ff</color>
      </PolyStyle>
    </Style>
    <Style id="style1">
      <IconStyle>
        <Icon>
          <href>http://download.avenza.com/images/pdfmaps_icons/red_pin.png</href>
        </Icon>
        <hotSpot x="0.5" xunits="fraction" y="0.5" yunits="fraction"/>
      </IconStyle>
    </Style>
    <Style id="style2">
      <IconStyle>
        <Icon>
          <href>http://download.avenza.com/images/pdfmaps_icons/yellow_pin.png</href>
        </Icon>
        <hotSpot x="0.5" xunits="fraction" y="0.5" yunits="fraction"/>
      </IconStyle>
    </Style>
    <Style id="style3">
      <IconStyle>
        <Icon>
          <href>http://download.avenza.com/images/pdfmaps_icons/blue_pin.png</href>
        </Icon>
        <hotSpot x="0.5" xunits="fraction" y="0.5" yunits="fraction"/>
      </IconStyle>
    </Style>
  </Document>
</kml>
